[
  {
    "id": 1,
    "name": "Monte Xanic",
    "type": "winery",
    "region": "Valle de Guadalupe",
    "city": "Valle de Guadalupe",
    "lat": 31.9167,
    "lng": -116.6167,
    "fee": 50,
    "website": "https://montexanic.com.mx",
    "phone": "+52 646 174 6155",
    "description": "Mexico's first boutique winery since 1988. The Gran Ricardo blend defines Baja wine excellence.",
    "image": "https://dynamic-media-cdn.tripadvisor.com/media/photo-o/1a/d1/a0/a0/monte-xanic.jpg?w=800&h=600&s=1"
  },
  {
    "id": 2,
    "name": "L.A. Cetto",
    "type": "winery",
    "region": "Valle de Guadalupe",
    "city": "Valle de Guadalupe",
    "lat": 31.8667,
    "lng": -116.5833,
    "fee": 35,
    "website": "https://lacetto.com",
    "phone": "+52 646 155 2264",
    "description": "Mexico's largest premium wine producer with over 80 years of winemaking tradition.",
    "image": "https://dynamic-media-cdn.tripadvisor.com/media/photo-o/0a/52/c7/bb/la-cetto.jpg?w=800&h=600&s=1"
  },
  {
    "id": 3,
    "name": "El Cielo",
    "type": "winery",
    "region": "Valle de Guadalupe",
    "city": "Valle de Guadalupe",
    "lat": 31.9,
    "lng": -116.65,
    "fee": 35,
    "website": "https://elcielowinery.com",
    "phone": "+52 646 188 3060",
    "description": "Award-winning boutique winery known for exceptional Nebbiolo and Mediterranean varietals.",
    "image": "https://dynamic-media-cdn.tripadvisor.com/media/photo-o/1a/0c/c6/e6/el-cielo.jpg?w=800&h=600&s=1"
  },
  {
    "id": 4,
    "name": "Adobe Guadalupe",
    "type": "winery",
    "region": "Valle de Guadalupe",
    "city": "Valle de Guadalupe",
    "lat": 32,
    "lng": -116.6,
    "fee": 40,
    "website": "https://adobeguadalupe.com",
    "phone": "+52 646 155 2094",
    "description": "Boutique winery and inn with stunning architecture and angel-named wines.",
    "image": "https://dynamic-media-cdn.tripadvisor.com/media/photo-o/12/f0/05/7a/adobe-guadalupe.jpg?w=800&h=600&s=1"
  },
  {
    "id": 5,
    "name": "Vena Cava",
    "type": "winery",
    "region": "Valle de Guadalupe",
    "city": "Valle de Guadalupe",
    "lat": 31.93,
    "lng": -116.64,
    "fee": 45,
    "website": "https://venacavawinery.com",
    "phone": "+52 646 156 8053",
    "description": "Iconic winery built from recycled boats, producing distinctive Big Blend wines.",
    "image": "https://dynamic-media-cdn.tripadvisor.com/media/photo-o/0e/ed/43/bf/vena-cava.jpg?w=800&h=600&s=1"
  },
  {
    "id": 6,
    "name": "Finca La Carrodilla",
    "type": "winery",
    "region": "Valle de Guadalupe",
    "city": "Valle de Guadalupe",
    "lat": 31.92,
    "lng": -116.63,
    "fee": 40,
    "website": "https://fincalacarrodilla.com",
    "phone": "+52 646 156 8200",
    "description": "Family-owned estate winery specializing in small-batch artisanal wines.",
    "image": "https://dynamic-media-cdn.tripadvisor.com/media/photo-o/15/5c/f0/c0/finca-la-carrodilla.jpg?w=800&h=600&s=1"
  },
  {
    "id": 7,
    "name": "Vinas de Garza",
    "type": "winery",
    "region": "Valle de Guadalupe",
    "city": "Valle de Guadalupe",
    "lat": 31.94,
    "lng": -116.62,
    "fee": 35,
    "website": "https://vinasdegarza.com",
    "phone": "+52 646 156 8180",
    "description": "Sustainable winery with panoramic vineyard views and award-winning Tempranillo.",
    "image": "https://dynamic-media-cdn.tripadvisor.com/media/photo-o/1a/e7/ec/20/vinas-de-garza.jpg?w=800&h=600&s=1"
  },
  {
    "id": 8,
    "name": "Bruma",
    "type": "winery",
    "region": "Valle de Guadalupe",
    "city": "Valle de Guadalupe",
    "lat": 31.91,
    "lng": -116.635,
    "fee": 60,
    "website": "https://brumawine.com",
    "phone": "+52 646 156 8338",
    "description": "Luxury wine estate with cave tastings and home to acclaimed restaurant Fauna.",
    "image": "https://dynamic-media-cdn.tripadvisor.com/media/photo-o/1c/c1/89/7c/fauna.jpg?w=800&h=600&s=1"
  },
  {
    "id": 9,
    "name": "Fauna",
    "type": "restaurant",
    "region": "Valle de Guadalupe",
    "city": "Valle de Guadalupe",
    "lat": 31.91,
    "lng": -116.635,
    "fee": 150,
    "website": "https://brumawine.com/fauna",
    "phone": "+52 646 156 8338",
    "description": "Chef David Castro Hussong's acclaimed Baja Med restaurant at Bruma winery.",
    "image": "https://dynamic-media-cdn.tripadvisor.com/media/photo-o/1c/c1/89/7c/fauna.jpg?w=800&h=600&s=1"
  },
  {
    "id": 10,
    "name": "Corazon de Tierra",
    "type": "restaurant",
    "region": "Valle de Guadalupe",
    "city": "Valle de Guadalupe",
    "lat": 31.935,
    "lng": -116.63,
    "fee": 120,
    "website": "https://corazondetierra.com",
    "phone": "+52 646 156 8030",
    "description": "Farm-to-table dining with ingredients from their own organic garden.",
    "image": "https://dynamic-media-cdn.tripadvisor.com/media/photo-o/0d/e0/d5/f0/corazon-de-tierra.jpg?w=800&h=600&s=1"
  },
  {
    "id": 11,
    "name": "Deckman's en el Mogor",
    "type": "restaurant",
    "region": "Valle de Guadalupe",
    "city": "Valle de Guadalupe",
    "lat": 31.965,
    "lng": -116.585,
    "fee": 100,
    "website": "https://deckmans.com",
    "phone": "+52 646 188 3960",
    "description": "Open-fire cooking under the oaks with Chef Drew Deckman's signature style.",
    "image": "https://dynamic-media-cdn.tripadvisor.com/media/photo-o/0f/8f/cf/6a/deckmans.jpg?w=800&h=600&s=1"
  },
  {
    "id": 12,
    "name": "Animalon",
    "type": "restaurant",
    "region": "Valle de Guadalupe",
    "city": "Valle de Guadalupe",
    "lat": 31.91,
    "lng": -116.63,
    "fee": 130,
    "website": "https://animalon.mx",
    "phone": "+52 646 156 8090",
    "description": "Chef Javier Plascencia's wood-fired cuisine showcasing Baja's finest ingredients.",
    "image": "https://dynamic-media-cdn.tripadvisor.com/media/photo-o/17/f8/46/9a/animalon.jpg?w=800&h=600&s=1"
  },
  {
    "id": 13,
    "name": "Restaurante Laja",
    "type": "restaurant",
    "region": "Valle de Guadalupe",
    "city": "Valle de Guadalupe",
    "lat": 31.93,
    "lng": -116.62,
    "fee": 110,
    "website": "https://laja.com.mx",
    "phone": "+52 646 155 2556",
    "description": "Pioneer of Baja Med cuisine, consistently ranked among Latin America's best.",
    "image": "https://dynamic-media-cdn.tripadvisor.com/media/photo-o/0b/05/b4/a0/laja.jpg?w=800&h=600&s=1"
  },
  {
    "id": 14,
    "name": "Conchas de Piedra",
    "type": "restaurant",
    "region": "San Antonio de las Minas",
    "city": "San Antonio de las Minas",
    "lat": 31.96,
    "lng": -116.67,
    "fee": 100,
    "website": "https://conchasdepiedra.com",
    "phone": "+52 646 178 3445",
    "description": "Elegant wine country dining with Mediterranean-influenced Baja cuisine.",
    "image": "https://dynamic-media-cdn.tripadvisor.com/media/photo-o/0e/f1/a6/2b/conchas-de-piedra.jpg?w=800&h=600&s=1"
  },
  {
    "id": 15,
    "name": "Mision 19",
    "type": "restaurant",
    "region": "Tijuana",
    "city": "Tijuana",
    "lat": 32.5149,
    "lng": -117.0382,
    "fee": 90,
    "website": "https://mision19.com",
    "phone": "+52 664 634 2493",
    "description": "Chef Javier Plascencia's flagship restaurant defining modern Tijuana cuisine.",
    "image": "https://dynamic-media-cdn.tripadvisor.com/media/photo-o/0d/42/f6/0d/mision-19.jpg?w=800&h=600&s=1"
  },
  {
    "id": 16,
    "name": "Oryx Capital",
    "type": "restaurant",
    "region": "Tijuana",
    "city": "Tijuana",
    "lat": 32.52,
    "lng": -117.04,
    "fee": 80,
    "website": "https://oryxcapital.mx",
    "phone": "+52 664 681 8787",
    "description": "Contemporary Mexican cuisine in an upscale Zona Rio setting.",
    "image": "https://dynamic-media-cdn.tripadvisor.com/media/photo-o/1a/fa/b2/10/oryx-capital.jpg?w=800&h=600&s=1"
  },
  {
    "id": 17,
    "name": "Wendlandt Cerveceria",
    "type": "brewery",
    "region": "Ensenada",
    "city": "Ensenada",
    "lat": 31.78,
    "lng": -116.62,
    "fee": 20,
    "website": "https://wendlandt.com.mx",
    "phone": "+52 646 174 6068",
    "description": "Pioneering craft brewery with ocean views and award-winning IPAs.",
    "image": "https://dynamic-media-cdn.tripadvisor.com/media/photo-o/12/c0/50/a0/wendlandt.jpg?w=800&h=600&s=1"
  },
  {
    "id": 18,
    "name": "Agua Mala",
    "type": "brewery",
    "region": "Ensenada",
    "city": "Ensenada",
    "lat": 31.815,
    "lng": -116.605,
    "fee": 18,
    "website": "https://aguamalabeer.com",
    "phone": "+52 646 178 8800",
    "description": "Innovative craft brewery known for unique coastal-inspired brews.",
    "image": "https://dynamic-media-cdn.tripadvisor.com/media/photo-o/0f/d8/78/50/agua-mala.jpg?w=800&h=600&s=1"
  },
  {
    "id": 19,
    "name": "Insurgente",
    "type": "brewery",
    "region": "Tijuana",
    "city": "Tijuana",
    "lat": 32.52,
    "lng": -117.02,
    "fee": 15,
    "website": "https://insurgente.mx",
    "phone": "+52 664 684 8282",
    "description": "Revolutionary craft brewery leading Tijuana's beer renaissance.",
    "image": "https://dynamic-media-cdn.tripadvisor.com/media/photo-o/0e/b5/d0/90/insurgente.jpg?w=800&h=600&s=1"
  },
  {
    "id": 20,
    "name": "Border Psycho Brewery",
    "type": "brewery",
    "region": "Tijuana",
    "city": "Tijuana",
    "lat": 32.53,
    "lng": -117.01,
    "fee": 15,
    "website": "https://borderpsycho.com",
    "phone": "+52 664 634 7835",
    "description": "Bold, boundary-pushing craft beers from Tijuana's brewing scene.",
    "image": "https://dynamic-media-cdn.tripadvisor.com/media/photo-o/15/a0/b5/60/border-psycho.jpg?w=800&h=600&s=1"
  },
  {
    "id": 21,
    "name": "Cuatro Cuatros",
    "type": "hotel",
    "region": "Valle de Guadalupe",
    "city": "Valle de Guadalupe",
    "lat": 31.88,
    "lng": -116.72,
    "fee": 450,
    "website": "https://cuatrocuatros.com",
    "phone": "+52 646 155 2200",
    "description": "Cliffside luxury where the vineyard meets the Pacific. Private suites with infinity views.",
    "image": "https://dynamic-media-cdn.tripadvisor.com/media/photo-o/1a/5c/7e/a4/cuatro-cuatros.jpg?w=800&h=600&s=1"
  },
  {
    "id": 22,
    "name": "Encuentro Guadalupe",
    "type": "hotel",
    "region": "Valle de Guadalupe",
    "city": "Valle de Guadalupe",
    "lat": 31.89,
    "lng": -116.60,
    "fee": 350,
    "website": "https://encuentroguadalupe.com",
    "phone": "+52 646 155 2775",
    "description": "Iconic eco-lofts perched on the hillside with panoramic valley views.",
    "image": "https://dynamic-media-cdn.tripadvisor.com/media/photo-o/0e/45/e0/90/encuentro-guadalupe.jpg?w=800&h=600&s=1"
  },
  {
    "id": 23,
    "name": "Hotel Bruma",
    "type": "hotel",
    "region": "Valle de Guadalupe",
    "city": "Valle de Guadalupe",
    "lat": 31.91,
    "lng": -116.635,
    "fee": 500,
    "website": "https://brumawine.com/hotel",
    "phone": "+52 646 156 8338",
    "description": "Ultra-luxury wine estate accommodation with private terraces and vineyard views.",
    "image": "https://dynamic-media-cdn.tripadvisor.com/media/photo-o/1c/c1/8a/50/bruma-hotel.jpg?w=800&h=600&s=1"
  },
  {
    "id": 24,
    "name": "Tesela Hotel",
    "type": "hotel",
    "region": "Valle de Guadalupe",
    "city": "Valle de Guadalupe",
    "lat": 31.90,
    "lng": -116.62,
    "fee": 280,
    "website": "https://teselahotel.com",
    "phone": "+52 646 155 2890",
    "description": "Boutique hotel with contemporary design and stunning vineyard panoramas.",
    "image": "https://dynamic-media-cdn.tripadvisor.com/media/photo-o/1a/e8/50/a0/tesela.jpg?w=800&h=600&s=1"
  },
  {
    "id": 25,
    "name": "Hotel Coral Marina",
    "type": "hotel",
    "region": "Ensenada",
    "city": "Ensenada",
    "lat": 31.87,
    "lng": -116.64,
    "fee": 180,
    "website": "https://hotelcoral.com",
    "phone": "+52 646 175 0000",
    "description": "Waterfront resort with full marina, spa, and panoramic bay views.",
    "image": "https://dynamic-media-cdn.tripadvisor.com/media/photo-o/1c/d0/a5/30/hotel-coral.jpg?w=800&h=600&s=1"
  },
  {
    "id": 26,
    "name": "Las Rosas Hotel Spa",
    "type": "hotel",
    "region": "Ensenada",
    "city": "Ensenada",
    "lat": 31.82,
    "lng": -116.60,
    "fee": 150,
    "website": "https://lasrosas.com",
    "phone": "+52 646 174 4310",
    "description": "Oceanfront elegance with infinity pool and acclaimed spa services.",
    "image": "https://dynamic-media-cdn.tripadvisor.com/media/photo-o/0b/a0/c5/80/las-rosas.jpg?w=800&h=600&s=1"
  },
  {
    "id": 27,
    "name": "Rosarito Beach Hotel",
    "type": "hotel",
    "region": "Rosarito",
    "city": "Rosarito",
    "lat": 32.36,
    "lng": -117.06,
    "fee": 120,
    "website": "https://rosaritobeachhotel.com",
    "phone": "+52 661 612 1111",
    "description": "Historic beachfront landmark with old Hollywood glamour since 1925.",
    "image": "https://dynamic-media-cdn.tripadvisor.com/media/photo-o/1c/e0/b5/40/rosarito-beach-hotel.jpg?w=800&h=600&s=1"
  },
  {
    "id": 28,
    "name": "One&Only Palmilla",
    "type": "hotel",
    "region": "Cabo San Lucas",
    "city": "San Jose del Cabo",
    "lat": 23.06,
    "lng": -109.70,
    "fee": 800,
    "website": "https://oneandonlyresorts.com/palmilla",
    "phone": "+52 624 146 7000",
    "description": "Ultra-luxury resort with Jack Nicklaus golf and private beach.",
    "image": "https://dynamic-media-cdn.tripadvisor.com/media/photo-o/29/a0/b5/60/palmilla.jpg?w=800&h=600&s=1"
  },
  {
    "id": 29,
    "name": "The Cape Thompson",
    "type": "hotel",
    "region": "Cabo San Lucas",
    "city": "Cabo San Lucas",
    "lat": 22.89,
    "lng": -109.88,
    "fee": 650,
    "website": "https://thompsonhotels.com/hotels/the-cape",
    "phone": "+52 624 163 0000",
    "description": "Thompson Hotel with dramatic Arch views and rooftop infinity pool.",
    "image": "https://dynamic-media-cdn.tripadvisor.com/media/photo-o/1e/f0/a5/30/the-cape.jpg?w=800&h=600&s=1"
  },
  {
    "id": 30,
    "name": "Esperanza Auberge",
    "type": "hotel",
    "region": "Cabo San Lucas",
    "city": "Cabo San Lucas",
    "lat": 23.03,
    "lng": -109.72,
    "fee": 750,
    "website": "https://esperanza.aubergeresorts.com",
    "phone": "+52 624 145 6400",
    "description": "Auberge resort on Punta Ballena with world-class spa and private casitas.",
    "image": "https://dynamic-media-cdn.tripadvisor.com/media/photo-o/2a/b0/c5/80/esperanza.jpg?w=800&h=600&s=1"
  },
  {
    "id": 31,
    "name": "Chileno Bay Auberge",
    "type": "hotel",
    "region": "Cabo San Lucas",
    "city": "Cabo San Lucas",
    "lat": 23.01,
    "lng": -109.78,
    "fee": 600,
    "website": "https://chilenobay.aubergeresorts.com",
    "phone": "+52 624 104 9700",
    "description": "Auberge resort on swimmable Chileno Bay with three oceanfront pools.",
    "image": "https://dynamic-media-cdn.tripadvisor.com/media/photo-o/1f/a0/b5/90/chileno-bay.jpg?w=800&h=600&s=1"
  },
  {
    "id": 32,
    "name": "Nobu Hotel Los Cabos",
    "type": "hotel",
    "region": "Cabo San Lucas",
    "city": "San Jose del Cabo",
    "lat": 23.05,
    "lng": -109.70,
    "fee": 550,
    "website": "https://nobuhotelloscabos.com",
    "phone": "+52 624 689 0700",
    "description": "Japanese-inspired luxury with signature Nobu restaurant and Pacific views.",
    "image": "https://dynamic-media-cdn.tripadvisor.com/media/photo-o/1e/b0/a5/40/nobu-los-cabos.jpg?w=800&h=600&s=1"
  },
  {
    "id": 33,
    "name": "Diamante Cabo",
    "type": "golf",
    "region": "Cabo San Lucas",
    "city": "Cabo San Lucas",
    "lat": 22.95,
    "lng": -109.93,
    "fee": 395,
    "website": "https://diamantecabosanlucas.com",
    "phone": "+52 624 172 5812",
    "description": "Home to Tiger Woods' first course design and Davis Love III's Dunes Course.",
    "image": "https://dynamic-media-cdn.tripadvisor.com/media/photo-o/1a/d0/c5/90/diamante.jpg?w=800&h=600&s=1"
  },
  {
    "id": 34,
    "name": "Quivira Golf Club",
    "type": "golf",
    "region": "Cabo San Lucas",
    "city": "Cabo San Lucas",
    "lat": 22.88,
    "lng": -109.92,
    "fee": 375,
    "website": "https://quiviraloscabos.com",
    "phone": "+52 624 145 6200",
    "description": "Jack Nicklaus' dramatic oceanfront masterpiece with cliffside holes.",
    "image": "https://dynamic-media-cdn.tripadvisor.com/media/photo-o/0f/e0/b5/a0/quivira.jpg?w=800&h=600&s=1"
  },
  {
    "id": 35,
    "name": "Puerto Los Cabos",
    "type": "golf",
    "region": "Cabo San Lucas",
    "city": "San Jose del Cabo",
    "lat": 23.08,
    "lng": -109.66,
    "fee": 350,
    "website": "https://puertoloscabos.com",
    "phone": "+52 624 173 9400",
    "description": "Two courses by Jack Nicklaus and Greg Norman with marina village.",
    "image": "https://dynamic-media-cdn.tripadvisor.com/media/photo-o/1b/a0/b5/b0/puerto-los-cabos.jpg?w=800&h=600&s=1"
  },
  {
    "id": 36,
    "name": "Cabo del Sol",
    "type": "golf",
    "region": "Cabo San Lucas",
    "city": "Cabo San Lucas",
    "lat": 22.98,
    "lng": -109.77,
    "fee": 375,
    "website": "https://cabodelsol.com",
    "phone": "+52 624 145 8200",
    "description": "Desert and Ocean courses with Tom Weiskopf and Jack Nicklaus designs.",
    "image": "https://dynamic-media-cdn.tripadvisor.com/media/photo-o/0e/f0/a5/c0/cabo-del-sol.jpg?w=800&h=600&s=1"
  },
  {
    "id": 37,
    "name": "Palmilla Golf Club",
    "type": "golf",
    "region": "Cabo San Lucas",
    "city": "San Jose del Cabo",
    "lat": 23.06,
    "lng": -109.71,
    "fee": 350,
    "website": "https://oneandonlyresorts.com/palmilla/golf",
    "phone": "+52 624 144 5250",
    "description": "Jack Nicklaus' first Latin American design with 27 spectacular holes.",
    "image": "https://dynamic-media-cdn.tripadvisor.com/media/photo-o/1c/b0/a5/d0/palmilla-golf.jpg?w=800&h=600&s=1"
  },
  {
    "id": 38,
    "name": "Querencia Golf Club",
    "type": "golf",
    "region": "Cabo San Lucas",
    "city": "San Jose del Cabo",
    "lat": 23.10,
    "lng": -109.68,
    "fee": 325,
    "website": "https://querenciagc.com",
    "phone": "+52 624 145 6670",
    "description": "Tom Fazio's private club design with dramatic desert canyon setting.",
    "image": "https://dynamic-media-cdn.tripadvisor.com/media/photo-o/0d/a0/b5/e0/querencia.jpg?w=800&h=600&s=1"
  },
  {
    "id": 39,
    "name": "Loreto Bay Golf",
    "type": "golf",
    "region": "Loreto",
    "city": "Loreto",
    "lat": 25.98,
    "lng": -111.33,
    "fee": 150,
    "website": "https://loretobaygolf.com",
    "phone": "+52 613 133 0560",
    "description": "TPC course on the Sea of Cortez with mountain and ocean views.",
    "image": "https://dynamic-media-cdn.tripadvisor.com/media/photo-o/0c/b0/a5/f0/loreto-bay.jpg?w=800&h=600&s=1"
  },
  {
    "id": 40,
    "name": "Cabo Adventures",
    "type": "adventure",
    "region": "Cabo San Lucas",
    "city": "Cabo San Lucas",
    "lat": 22.91,
    "lng": -109.89,
    "fee": 150,
    "website": "https://cabo-adventures.com",
    "phone": "+52 624 173 9500",
    "description": "Premier whale watching, snorkeling, and dolphin encounters.",
    "image": "https://dynamic-media-cdn.tripadvisor.com/media/photo-o/1a/e0/c5/a0/cabo-adventures.jpg?w=800&h=600&s=1"
  },
  {
    "id": 41,
    "name": "Kuyima Whale Watching",
    "type": "adventure",
    "region": "San Ignacio",
    "city": "San Ignacio Lagoon",
    "lat": 26.78,
    "lng": -113.23,
    "fee": 200,
    "website": "https://kuyima.com",
    "phone": "+52 615 154 0070",
    "description": "Intimate gray whale encounters at the UNESCO World Heritage lagoon.",
    "image": "https://dynamic-media-cdn.tripadvisor.com/media/photo-o/0e/3c/f8/83/laguna-san-ignacio.jpg?w=800&h=600&s=1"
  },
  {
    "id": 42,
    "name": "La Paz Kayak",
    "type": "adventure",
    "region": "La Paz",
    "city": "La Paz",
    "lat": 24.16,
    "lng": -110.31,
    "fee": 120,
    "website": "https://lapazkayak.com",
    "phone": "+52 612 123 2160",
    "description": "Sea kayaking to Espiritu Santo Island and whale shark encounters.",
    "image": "https://dynamic-media-cdn.tripadvisor.com/media/photo-o/1b/c0/a5/b0/la-paz-kayak.jpg?w=800&h=600&s=1"
  },
  {
    "id": 43,
    "name": "Villa del Palmar Loreto",
    "type": "hotel",
    "region": "Loreto",
    "city": "Loreto",
    "lat": 25.94,
    "lng": -111.31,
    "fee": 280,
    "website": "https://villadelpalmarloreto.com",
    "phone": "+52 613 134 1000",
    "description": "All-inclusive beach resort with TPC golf and Islands of Loreto access.",
    "image": "https://dynamic-media-cdn.tripadvisor.com/media/photo-o/1d/b0/a5/c0/villa-del-palmar.jpg?w=800&h=600&s=1"
  },
  {
    "id": 44,
    "name": "Costa Baja Resort",
    "type": "hotel",
    "region": "La Paz",
    "city": "La Paz",
    "lat": 24.20,
    "lng": -110.35,
    "fee": 220,
    "website": "https://costabaja.com",
    "phone": "+52 612 123 6000",
    "description": "Marina resort with Gary Player golf and Sea of Cortez adventures.",
    "image": "https://dynamic-media-cdn.tripadvisor.com/media/photo-o/1c/a0/b5/d0/costa-baja.jpg?w=800&h=600&s=1"
  },
  {
    "id": 45,
    "name": "El Ganzo Hotel",
    "type": "hotel",
    "region": "Cabo San Lucas",
    "city": "San Jose del Cabo",
    "lat": 23.06,
    "lng": -109.68,
    "fee": 300,
    "website": "https://elganzo.com",
    "phone": "+52 624 104 9000",
    "description": "Art-forward boutique hotel with underground recording studio and rooftop pool.",
    "image": "https://dynamic-media-cdn.tripadvisor.com/media/photo-o/0f/b0/a5/e0/el-ganzo.jpg?w=800&h=600&s=1"
  },
  {
    "id": 46,
    "name": "Baja Brewing Company",
    "type": "brewery",
    "region": "Cabo San Lucas",
    "city": "San Jose del Cabo",
    "lat": 23.05,
    "lng": -109.68,
    "fee": 25,
    "website": "https://bajabrewingcompany.com",
    "phone": "+52 624 130 7900",
    "description": "Los Cabos' pioneering craft brewery with beachfront taproom.",
    "image": "https://dynamic-media-cdn.tripadvisor.com/media/photo-o/0e/c0/a5/f0/baja-brewing.jpg?w=800&h=600&s=1"
  },
  {
    "id": 47,
    "name": "Los Tamarindos",
    "type": "restaurant",
    "region": "Cabo San Lucas",
    "city": "San Jose del Cabo",
    "lat": 23.07,
    "lng": -109.69,
    "fee": 85,
    "website": "https://lostamarindos.mx",
    "phone": "+52 624 105 6031",
    "description": "Organic farm restaurant with cooking classes and farm-to-table dining.",
    "image": "https://dynamic-media-cdn.tripadvisor.com/media/photo-o/1a/b0/a5/a0/los-tamarindos.jpg?w=800&h=600&s=1"
  },
  {
    "id": 48,
    "name": "Flora Farms",
    "type": "restaurant",
    "region": "Cabo San Lucas",
    "city": "San Jose del Cabo",
    "lat": 23.08,
    "lng": -109.67,
    "fee": 90,
    "website": "https://flora-farms.com",
    "phone": "+52 624 355 4564",
    "description": "25-acre organic farm with acclaimed restaurant, bar, and artisan shops.",
    "image": "https://dynamic-media-cdn.tripadvisor.com/media/photo-o/1b/a0/b5/b0/flora-farms.jpg?w=800&h=600&s=1"
  }
]