[
    {
        "lat":  31.78,
        "id":  76,
        "category":  "Award-Winning",
        "website":  "wendlandt.com.mx",
        "fee":  18,
        "name":  "Wendlandt Cervecería",
        "type":  "brewery",
        "price":  "$$",
        "description":  "Best Brewery Mexico 2x (2015). Award-winning IPAs. 150 gallons/week. Chef Krista Velasco pub menu.",
        "phone":  "+52 646 174 6068",
        "lng":  -116.62,
        "reservation":  false,
        "city":  "Ensenada",
        "michelin":  0
    },
    {
        "lat":  31.81,
        "id":  77,
        "category":  "Innovative Mexican",
        "website":  "cervezacardera.com",
        "fee":  15,
        "name":  "Cerveza Cardera",
        "type":  "brewery",
        "price":  "$$",
        "description":  "Innovative Mexican-inspired flavors. Mango chamoy Berliner-Weisse. Hibiscus saison.",
        "phone":  "+52 646 178 8550",
        "lng":  -116.6,
        "reservation":  false,
        "city":  "Ensenada",
        "michelin":  0
    },
    {
        "lat":  31.815,
        "id":  78,
        "category":  "Shipping Container",
        "website":  "aguamalabeer.com",
        "fee":  15,
        "name":  "AguaMala",
        "type":  "brewery",
        "price":  "$$",
        "description":  "Shipping container brewery. Industrial chic. Rotating taps. Food truck partnerships.",
        "phone":  "",
        "lng":  -116.605,
        "reservation":  false,
        "city":  "Ensenada",
        "michelin":  0
    },
    {
        "lat":  31.82,
        "id":  79,
        "category":  "Baja-Inspired",
        "website":  "transpeninsular.mx",
        "fee":  15,
        "name":  "Cervecería Transpeninsular",
        "type":  "brewery",
        "price":  "$$",
        "description":  "Baja California-inspired brews. Local ingredients. Highway 1 theme.",
        "phone":  "",
        "lng":  -116.61,
        "reservation":  false,
        "city":  "Ensenada",
        "michelin":  0
    },
    {
        "lat":  31.825,
        "id":  80,
        "category":  "Irish-Mexican Fusion",
        "website":  "",
        "fee":  15,
        "name":  "Lucky Irish Beer Garden",
        "type":  "brewery",
        "price":  "$$",
        "description":  "Irish-Mexican fusion beers. Beer garden atmosphere. Live music weekends.",
        "phone":  "",
        "lng":  -116.615,
        "reservation":  false,
        "city":  "Ensenada",
        "michelin":  0
    },
    {
        "lat":  31.83,
        "id":  81,
        "category":  "Belgian-Inspired",
        "website":  "bruer.mx",
        "fee":  18,
        "name":  "Cerveza Bruer",
        "type":  "brewery",
        "price":  "$$",
        "description":  "Belgian-inspired ales. Farmhouse saisons. Sour specialists.",
        "phone":  "",
        "lng":  -116.62,
        "reservation":  false,
        "city":  "Ensenada",
        "michelin":  0
    },
    {
        "lat":  31.835,
        "id":  82,
        "category":  "Border Culture",
        "website":  "",
        "fee":  15,
        "name":  "Sin Fronteras",
        "type":  "brewery",
        "price":  "$$",
        "description":  "Without Borders. Border culture celebration. Cross-cultural brews.",
        "phone":  "",
        "lng":  -116.625,
        "reservation":  false,
        "city":  "Ensenada",
        "michelin":  0
    },
    {
        "lat":  31.84,
        "id":  83,
        "category":  "Science-Themed",
        "website":  "",
        "fee":  15,
        "name":  "Heisenberg Tap Room",
        "type":  "brewery",
        "price":  "$$",
        "description":  "Science-themed brewery. Chemistry beers. Breaking Bad inspired.",
        "phone":  "",
        "lng":  -116.63,
        "reservation":  false,
        "city":  "Ensenada",
        "michelin":  0
    },
    {
        "lat":  31.845,
        "id":  84,
        "category":  "Traditional Mexican",
        "website":  "",
        "fee":  12,
        "name":  "El Chivo Gruñón",
        "type":  "brewery",
        "price":  "$",
        "description":  "The Grumpy Goat. Traditional Mexican beer styles. Bohemian lagers.",
        "phone":  "",
        "lng":  -116.635,
        "reservation":  false,
        "city":  "Ensenada",
        "michelin":  0
    },
    {
        "lat":  31.85,
        "id":  85,
        "category":  "Local Favorite",
        "website":  "",
        "fee":  12,
        "name":  "Yopetas",
        "type":  "brewery",
        "price":  "$",
        "description":  "Local favorite hangout. Rotating taps. Community vibe.",
        "phone":  "",
        "lng":  -116.64,
        "reservation":  false,
        "city":  "Ensenada",
        "michelin":  0
    },
    {
        "lat":  31.855,
        "id":  86,
        "category":  "Border Brewery",
        "website":  "",
        "fee":  15,
        "name":  "Calexico Brewing",
        "type":  "brewery",
        "price":  "$$",
        "description":  "Border brewery. Calexico-Mexicali fusion. Cross-border collaboration.",
        "phone":  "",
        "lng":  -116.645,
        "reservation":  false,
        "city":  "Ensenada",
        "michelin":  0
    },
    {
        "lat":  31.86,
        "id":  87,
        "category":  "Collective/Cooperative",
        "website":  "colectivocervecero.com",
        "fee":  15,
        "name":  "Colectivo Cervecero",
        "type":  "brewery",
        "price":  "$$",
        "description":  "Brewery collective. Cooperative model. Multiple brewers shared space.",
        "phone":  "",
        "lng":  -116.65,
        "reservation":  false,
        "city":  "Ensenada",
        "michelin":  0
    },
    {
        "lat":  31.865,
        "id":  88,
        "category":  "Experimental Ales",
        "website":  "",
        "fee":  18,
        "name":  "Farland Aleworks",
        "type":  "brewery",
        "price":  "$$",
        "description":  "Experimental ales. Barrel-aging program. Limited releases.",
        "phone":  "",
        "lng":  -116.655,
        "reservation":  false,
        "city":  "Ensenada",
        "michelin":  0
    },
    {
        "lat":  31.87,
        "id":  89,
        "category":  "Revolutionary Craft",
        "website":  "insurgente.mx",
        "fee":  15,
        "name":  "Insurgente",
        "type":  "brewery",
        "price":  "$$",
        "description":  "Revolutionary craft brewery. Tijuana pioneer. Award-winning beers. Distribution throughout Baja.",
        "phone":  "",
        "lng":  -116.66,
        "reservation":  false,
        "city":  "Tijuana",
        "michelin":  0
    },
    {
        "lat":  31.875,
        "id":  90,
        "category":  "Extreme Craft",
        "website":  "borderpsycho.com",
        "fee":  18,
        "name":  "Border Psycho",
        "type":  "brewery",
        "price":  "$$",
        "description":  "Extreme craft beers. High ABV. Experimental hops. Border culture celebration.",
        "phone":  "",
        "lng":  -116.665,
        "reservation":  false,
        "city":  "Tijuana",
        "michelin":  0
    }
]
